[
  {"region":"Dhaka Division","district":"Dhaka","city":"Dhaka City","covered_area":"City Area","status":"Active","flowchart":"N/A","longitude":90.4125,"latitude":23.8103},
  {"region":"Dhaka Division","district":"Faridpur","city":"Faridpur City","covered_area":"City & Nearby","status":"Active","flowchart":"N/A","longitude":89.8403,"latitude":23.607},
  {"region":"Dhaka Division","district":"Gazipur","city":"Gazipur City","covered_area":"City Area","status":"Active","flowchart":"N/A","longitude":90.4203,"latitude":23.9999},
  {"region":"Dhaka Division","district":"Gopalganj","city":"Gopalganj City","covered_area":"City & Nearby","status":"Active","flowchart":"N/A","longitude":89.8286,"latitude":23.0056},
  {"region":"Dhaka Division","district":"Kishoreganj","city":"Kishoreganj City","covered_area":"City Area","status":"Active","flowchart":"N/A","longitude":90.7858,"latitude":24.443},
  {"region":"Dhaka Division","district":"Madaripur","city":"Madaripur City","covered_area":"City Area","status":"Active","flowchart":"N/A","longitude":90.1994,"latitude":23.1641},
  {"region":"Dhaka Division","district":"Manikganj","city":"Manikganj City","covered_area":"City Area","status":"Active","flowchart":"N/A","longitude":89.95,"latitude":23.86},
  {"region":"Dhaka Division","district":"Munshiganj","city":"Munshiganj City","covered_area":"City Area","status":"Active","flowchart":"N/A","longitude":90.4833,"latitude":23.55},
  {"region":"Dhaka Division","district":"Narayanganj","city":"Narayanganj City","covered_area":"City & Industrial Area","status":"Active","flowchart":"N/A","longitude":90.5,"latitude":23.6238},
  {"region":"Dhaka Division","district":"Narsingdi","city":"Narsingdi City","covered_area":"City Area","status":"Active","flowchart":"N/A","longitude":90.72,"latitude":23.92},
  {"region":"Dhaka Division","district":"Rajbari","city":"Rajbari City","covered_area":"City Area","status":"Active","flowchart":"N/A","longitude":89.645,"latitude":23.7565},
  {"region":"Dhaka Division","district":"Shariatpur","city":"Shariatpur City","covered_area":"City Area","status":"Active","flowchart":"N/A","longitude":90.3536,"latitude":23.2171},
  {"region":"Dhaka Division","district":"Tangail","city":"Tangail City","covered_area":"City & Nearby","status":"Active","flowchart":"N/A","longitude":89.9167,"latitude":24.2513},

  {"region":"Chattogram Division","district":"Bandarban","city":"Bandarban City","covered_area":"Hill Area","status":"Active","flowchart":"N/A","longitude":92.2184,"latitude":22.1953},
  {"region":"Chattogram Division","district":"Brahmanbaria","city":"Brahmanbaria City","covered_area":"City Area","status":"Active","flowchart":"N/A","longitude":91.1124,"latitude":23.9571},
  {"region":"Chattogram Division","district":"Chandpur","city":"Chandpur City","covered_area":"City Area","status":"Active","flowchart":"N/A","longitude":90.66,"latitude":23.2333},
  {"region":"Chattogram Division","district":"Chattogram","city":"Chattogram City","covered_area":"Port & City","status":"Active","flowchart":"N/A","longitude":91.7832,"latitude":22.3569},
  {"region":"Chattogram Division","district":"Cumilla","city":"Cumilla City","covered_area":"City Area","status":"Active","flowchart":"N/A","longitude":91.1809,"latitude":23.4607},
  {"region":"Chattogram Division","district":"Cox's Bazar","city":"Cox's Bazar City","covered_area":"Tourist Area","status":"Active","flowchart":"N/A","longitude":92.0058,"latitude":21.4272},
  {"region":"Chattogram Division","district":"Feni","city":"Feni City","covered_area":"City Area","status":"Active","flowchart":"N/A","longitude":91.4136,"latitude":22.94},
  {"region":"Chattogram Division","district":"Khagrachari","city":"Khagrachari City","covered_area":"Hill Area","status":"Active","flowchart":"N/A","longitude":91.9847,"latitude":23.1193},
  {"region":"Chattogram Division","district":"Lakshmipur","city":"Lakshmipur City","covered_area":"City Area","status":"Active","flowchart":"N/A","longitude":90.83,"latitude":22.95},
  {"region":"Chattogram Division","district":"Noakhali","city":"Noakhali City","covered_area":"City Area","status":"Active","flowchart":"N/A","longitude":91.0995,"latitude":22.824},
  {"region":"Chattogram Division","district":"Rangamati","city":"Rangamati City","covered_area":"Hill Area","status":"Active","flowchart":"N/A","longitude":92.2985,"latitude":22.7324},

  {"region":"Khulna Division","district":"Bagerhat","city":"Bagerhat City","covered_area":"City Area","status":"Active","flowchart":"N/A","longitude":89.7895,"latitude":22.6602},
  {"region":"Khulna Division","district":"Chuadanga","city":"Chuadanga City","covered_area":"City Area","status":"Active","flowchart":"N/A","longitude":88.8415,"latitude":23.6402},
  {"region":"Khulna Division","district":"Jessore","city":"Jessore City","covered_area":"City Area","status":"Active","flowchart":"N/A","longitude":89.2,"latitude":23.17},
  {"region":"Khulna Division","district":"Jhenaidah","city":"Jhenaidah City","covered_area":"City Area","status":"Active","flowchart":"N/A","longitude":89.1726,"latitude":23.5448},
  {"region":"Khulna Division","district":"Khulna","city":"Khulna City","covered_area":"Port & City","status":"Active","flowchart":"N/A","longitude":89.5403,"latitude":22.8456},
  {"region":"Khulna Division","district":"Kushtia","city":"Kushtia City","covered_area":"City Area","status":"Active","flowchart":"N/A","longitude":89.1208,"latitude":23.9013},
  {"region":"Khulna Division","district":"Magura","city":"Magura City","covered_area":"City Area","status":"Active","flowchart":"N/A","longitude":89.419,"latitude":23.4852},
  {"region":"Khulna Division","district":"Meherpur","city":"Meherpur City","covered_area":"City Area","status":"Active","flowchart":"N/A","longitude":88.6312,"latitude":23.7622},
  {"region":"Khulna Division","district":"Narail","city":"Narail City","covered_area":"City Area","status":"Active","flowchart":"N/A","longitude":89.5017,"latitude":23.1775},
  {"region":"Khulna Division","district":"Satkhira","city":"Satkhira City","covered_area":"City Area","status":"Active","flowchart":"N/A","longitude":89.0715,"latitude":22.7085},

  {"region":"Mymensingh Division","district":"Jamalpur","city":"Jamalpur City","covered_area":"City Area","status":"Active","flowchart":"N/A","longitude":89.937,"latitude":24.9377},
  {"region":"Mymensingh Division","district":"Mymensingh","city":"Mymensingh City","covered_area":"City Area","status":"Active","flowchart":"N/A","longitude":90.4203,"latitude":24.7471},
  {"region":"Mymensingh Division","district":"Netrokona","city":"Netrokona City","covered_area":"City Area","status":"Active","flowchart":"N/A","longitude":90.7305,"latitude":24.8836},
  {"region":"Mymensingh Division","district":"Sherpur","city":"Sherpur City","covered_area":"City Area","status":"Active","flowchart":"N/A","longitude":90.02,"latitude":25.02},

  {"region":"Rajshahi Division","district":"Bogra","city":"Bogra City","covered_area":"City Area","status":"Active","flowchart":"N/A","longitude":89.37,"latitude":24.85},
  {"region":"Rajshahi Division","district":"Joypurhat","city":"Joypurhat City","covered_area":"City Area","status":"Active","flowchart":"N/A","longitude":89.022,"latitude":25.094},
  {"region":"Rajshahi Division","district":"Naogaon","city":"Naogaon City","covered_area":"City Area","status":"Active","flowchart":"N/A","longitude":88.9318,"latitude":24.7936},
  {"region":"Rajshahi Division","district":"Natore","city":"Natore City","covered_area":"City Area","status":"Active","flowchart":"N/A","longitude":89,"latitude":24.42},
  {"region":"Rajshahi Division","district":"Pabna","city":"Pabna City","covered_area":"City Area","status":"Active","flowchart":"N/A","longitude":89.2372,"latitude":24.0064},
  {"region":"Rajshahi Division","district":"Rajshahi","city":"Rajshahi City","covered_area":"City Area","status":"Active","flowchart":"N/A","longitude":88.6042,"latitude":24.3745},
  {"region":"Rajshahi Division","district":"Sirajganj","city":"Sirajganj City","covered_area":"City Area","status":"Active","flowchart":"N/A","longitude":89.7084,"latitude":24.4568},

  {"region":"Rangpur Division","district":"Dinajpur","city":"Dinajpur City","covered_area":"City Area","status":"Active","flowchart":"N/A","longitude":88.6378,"latitude":25.6274},
  {"region":"Rangpur Division","district":"Gaibandha","city":"Gaibandha City","covered_area":"City Area","status":"Active","flowchart":"N/A","longitude":89.528,"latitude":25.3288},
  {"region":"Rangpur Division","district":"Kurigram","city":"Kurigram City","covered_area":"City Area","status":"Active","flowchart":"N/A","longitude":89.6487,"latitude":25.7508},
  {"region":"Rangpur Division","district":"Lalmonirhat","city":"Lalmonirhat City","covered_area":"City Area","status":"Active","flowchart":"N/A","longitude":89.2847,"latitude":25.9923},
  {"region":"Rangpur Division","district":"Nilphamari","city":"Nilphamari City","covered_area":"City Area","status":"Active","flowchart":"N/A","longitude":88.856,"latitude":25.931},
  {"region":"Rangpur Division","district":"Panchagarh","city":"Panchagarh City","covered_area":"City Area","status":"Active","flowchart":"N/A","longitude":88.554,"latitude":26.3411},
  {"region":"Rangpur Division","district":"Thakurgaon","city":"Thakurgaon City","covered_area":"City Area","status":"Active","flowchart":"N/A","longitude":88.4616,"latitude":26.0336},

  {"region":"Sylhet Division","district":"Habiganj","city":"Habiganj City","covered_area":"City Area","status":"Active","flowchart":"N/A","longitude":91.4125,"latitude":24.3784},
  {"region":"Sylhet Division","district":"Moulvibazar","city":"Moulvibazar City","covered_area":"City Area","status":"Active","flowchart":"N/A","longitude":91.7774,"latitude":24.4949},
  {"region":"Sylhet Division","district":"Sunamganj","city":"Sunamganj City","covered_area":"City Area","status":"Active","flowchart":"N/A","longitude":91.395,"latitude":25.0658},
  {"region":"Sylhet Division","district":"Sylhet","city":"Sylhet City","covered_area":"City Area","status":"Active","flowchart":"N/A","longitude":91.8687,"latitude":24.8949}
]
