[
  {"region":"Dhaka Division","district":"Dhaka","city":"Dhaka City","covered_area":"City Area","status":"Active","flowchart":"N/A","longitude":90.4125,"latitude":23.8103,"vegetable":"Tomato"},
  {"region":"Dhaka Division","district":"Faridpur","city":"Faridpur City","covered_area":"City & Nearby","status":"Active","flowchart":"N/A","longitude":89.8403,"latitude":23.607,"vegetable":"Potato"},
  {"region":"Dhaka Division","district":"Gazipur","city":"Gazipur City","covered_area":"City Area","status":"Active","flowchart":"N/A","longitude":90.4203,"latitude":23.9999,"vegetable":"Cabbage"},
  {"region":"Dhaka Division","district":"Gopalganj","city":"Gopalganj City","covered_area":"City & Nearby","status":"Active","flowchart":"N/A","longitude":89.8286,"latitude":23.0056,"vegetable":"Carrot"},
  {"region":"Dhaka Division","district":"Kishoreganj","city":"Kishoreganj City","covered_area":"City Area","status":"Active","flowchart":"N/A","longitude":90.7858,"latitude":24.443,"vegetable":"Spinach"},
  {"region":"Dhaka Division","district":"Madaripur","city":"Madaripur City","covered_area":"City Area","status":"Active","flowchart":"N/A","longitude":90.1994,"latitude":23.1641,"vegetable":"Eggplant"},
  {"region":"Dhaka Division","district":"Manikganj","city":"Manikganj City","covered_area":"City Area","status":"Active","flowchart":"N/A","longitude":89.95,"latitude":23.86,"vegetable":"Bitter Gourd"},
  {"region":"Dhaka Division","district":"Munshiganj","city":"Munshiganj City","covered_area":"City Area","status":"Active","flowchart":"N/A","longitude":90.4833,"latitude":23.55,"vegetable":"Cucumber"},
  {"region":"Dhaka Division","district":"Narayanganj","city":"Narayanganj City","covered_area":"City & Industrial Area","status":"Active","flowchart":"N/A","longitude":90.5,"latitude":23.6238,"vegetable":"Ladies Finger"},
  {"region":"Dhaka Division","district":"Narsingdi","city":"Narsingdi City","covered_area":"City Area","status":"Active","flowchart":"N/A","longitude":90.72,"latitude":23.92,"vegetable":"Cauliflower"},
  {"region":"Dhaka Division","district":"Rajbari","city":"Rajbari City","covered_area":"City Area","status":"Active","flowchart":"N/A","longitude":89.645,"latitude":23.7565,"vegetable":"Pumpkin"},
  {"region":"Dhaka Division","district":"Shariatpur","city":"Shariatpur City","covered_area":"City Area","status":"Active","flowchart":"N/A","longitude":90.3536,"latitude":23.2171,"vegetable":"Onion"},
  {"region":"Dhaka Division","district":"Tangail","city":"Tangail City","covered_area":"City & Nearby","status":"Active","flowchart":"N/A","longitude":89.9167,"latitude":24.2513,"vegetable":"Garlic"},

  {"region":"Chattogram Division","district":"Bandarban","city":"Bandarban City","covered_area":"Hill Area","status":"Active","flowchart":"N/A","longitude":92.2184,"latitude":22.1953,"vegetable":"Tomato"},
  {"region":"Chattogram Division","district":"Brahmanbaria","city":"Brahmanbaria City","covered_area":"City Area","status":"Active","flowchart":"N/A","longitude":91.1124,"latitude":23.9571,"vegetable":"Potato"},
  {"region":"Chattogram Division","district":"Chandpur","city":"Chandpur City","covered_area":"City Area","status":"Active","flowchart":"N/A","longitude":90.66,"latitude":23.2333,"vegetable":"Cabbage"},
  {"region":"Chattogram Division","district":"Chattogram","city":"Chattogram City","covered_area":"Port & City","status":"Active","flowchart":"N/A","longitude":91.7832,"latitude":22.3569,"vegetable":"Carrot"},
  {"region":"Chattogram Division","district":"Cumilla","city":"Cumilla City","covered_area":"City Area","status":"Active","flowchart":"N/A","longitude":91.1809,"latitude":23.4607,"vegetable":"Spinach"},
  {"region":"Chattogram Division","district":"Cox's Bazar","city":"Cox's Bazar City","covered_area":"Tourist Area","status":"Active","flowchart":"N/A","longitude":92.0058,"latitude":21.4272,"vegetable":"Eggplant"},
  {"region":"Chattogram Division","district":"Feni","city":"Feni City","covered_area":"City Area","status":"Active","flowchart":"N/A","longitude":91.4136,"latitude":22.94,"vegetable":"Bitter Gourd"},
  {"region":"Chattogram Division","district":"Khagrachari","city":"Khagrachari City","covered_area":"Hill Area","status":"Active","flowchart":"N/A","longitude":91.9847,"latitude":23.1193,"vegetable":"Cucumber"},
  {"region":"Chattogram Division","district":"Lakshmipur","city":"Lakshmipur City","covered_area":"City Area","status":"Active","flowchart":"N/A","longitude":90.83,"latitude":22.95,"vegetable":"Ladies Finger"},
  {"region":"Chattogram Division","district":"Noakhali","city":"Noakhali City","covered_area":"City Area","status":"Active","flowchart":"N/A","longitude":91.0995,"latitude":22.824,"vegetable":"Cauliflower"},
  {"region":"Chattogram Division","district":"Rangamati","city":"Rangamati City","covered_area":"Hill Area","status":"Active","flowchart":"N/A","longitude":92.2985,"latitude":22.7324,"vegetable":"Pumpkin"}
]
